[{"outletId":"OUT0001","name":"Maa Sharma Provision Store","pinCode":"500016","area":"Ameerpet","channelType":"general","beatId":1,"lat":17.429505,"lng":78.448693},{"outletId":"OUT0002","name":"New Reddy Kirana & General","pinCode":"500072","area":"Kukatpally","channelType":"paan-plus","beatId":2,"lat":17.480041,"lng":78.407314},{"outletId":"OUT0003","name":"New Krishna Mart","pinCode":"500060","area":"Dilsukhnagar","channelType":"cosmetic","beatId":3,"lat":17.362413,"lng":78.529748},{"outletId":"OUT0004","name":"Lakshmi Kirana Store","pinCode":"500016","area":"Begumpet","channelType":"grocery","beatId":4,"lat":17.439959,"lng":78.466912},{"outletId":"OUT0005","name":"Srinivas General Store","pinCode":"500003","area":"Secunderabad","channelType":"general","beatId":5,"lat":17.440451,"lng":78.503811},{"outletId":"OUT0006","name":"Om Ramesh Mart","pinCode":"500081","area":"Madhapur","channelType":"paan-plus","beatId":6,"lat":17.442496,"lng":78.3966},{"outletId":"OUT0007","name":"Suresh Shop","pinCode":"500032","area":"Gachibowli","channelType":"grocery","beatId":7,"lat":17.435836,"lng":78.341097},{"outletId":"OUT0008","name":"Maa Venkat Grocery","pinCode":"500033","area":"Jubilee Hills","channelType":"general","beatId":8,"lat":17.437073,"lng":78.408433},{"outletId":"OUT0009","name":"Maa Ravi Grocery","pinCode":"500034","area":"Banjara Hills","channelType":"grocery","beatId":9,"lat":17.41181,"lng":78.434574},{"outletId":"OUT0010","name":"Maa Ganesh Mart","pinCode":"500029","area":"Himayath Nagar","channelType":"grocery","beatId":10,"lat":17.387945,"lng":78.487059},{"outletId":"OUT0011","name":"Sri Sai Kirana & General","pinCode":"500028","area":"Mehdipatnam","channelType":"cosmetic","beatId":11,"lat":17.390084,"lng":78.435336},{"outletId":"OUT0012","name":"Balaji Kirana Store","pinCode":"500008","area":"Tolichowki","channelType":"general","beatId":12,"lat":17.405393,"lng":78.41094},{"outletId":"OUT0013","name":"Om Mahesh Traders","pinCode":"500074","area":"LB Nagar","channelType":"general","beatId":13,"lat":17.355927,"lng":78.546939},{"outletId":"OUT0014","name":"Sri Patel Kiryana","pinCode":"500039","area":"Uppal","channelType":"general","beatId":14,"lat":17.405452,"lng":78.554149},{"outletId":"OUT0015","name":"New Kumar Traders","pinCode":"500007","area":"Habsiguda","channelType":"general","beatId":15,"lat":17.398375,"lng":78.530144},{"outletId":"OUT0016","name":"Maa Prasad Shop","pinCode":"500017","area":"Tarnaka","channelType":"grocery","beatId":16,"lat":17.424708,"lng":78.534339},{"outletId":"OUT0017","name":"Om Murthy Shop","pinCode":"500047","area":"Malkajgiri","channelType":"general","beatId":17,"lat":17.457593,"lng":78.517446},{"outletId":"OUT0018","name":"Maa Rao Shop","pinCode":"500014","area":"Kompally","channelType":"paan-plus","beatId":18,"lat":17.533053,"lng":78.491443},{"outletId":"OUT0019","name":"Naidu Kirana & General","pinCode":"500049","area":"Miyapur","channelType":"general","beatId":19,"lat":17.501207,"lng":78.358148},{"outletId":"OUT0020","name":"Om Swamy Traders","pinCode":"500050","area":"Chandanagar","channelType":"grocery","beatId":20,"lat":17.4873,"lng":78.327918},{"outletId":"OUT0021","name":"Om Raju Mart","pinCode":"500019","area":"Lingampally","channelType":"grocery","beatId":21,"lat":17.492768,"lng":78.32034},{"outletId":"OUT0022","name":"Mohan Mart","pinCode":"500035","area":"Kothapet","channelType":"grocery","beatId":22,"lat":17.354752,"lng":78.551117},{"outletId":"OUT0023","name":"New Anil Mart","pinCode":"500076","area":"Nacharam","channelType":"grocery","beatId":23,"lat":17.405702,"lng":78.557353},{"outletId":"OUT0024","name":"Om Vijay General Store","pinCode":"500010","area":"Alwal","channelType":"cosmetic","beatId":24,"lat":17.493851,"lng":78.521664},{"outletId":"OUT0025","name":"Shri Satish Mart","pinCode":"500011","area":"Bowenpally","channelType":"grocery","beatId":25,"lat":17.472946,"lng":78.480223},{"outletId":"OUT0026","name":"Maa Kiran Kirana & General","pinCode":"500015","area":"Trimulgherry","channelType":"grocery","beatId":26,"lat":17.485099,"lng":78.502967},{"outletId":"OUT0027","name":"New Sekhar Grocery","pinCode":"500001","area":"Nampally","channelType":"grocery","beatId":27,"lat":17.384058,"lng":78.471583},{"outletId":"OUT0028","name":"Deepak Grocery","pinCode":"500001","area":"Abids","channelType":"grocery","beatId":28,"lat":17.389051,"lng":78.482826},{"outletId":"OUT0029","name":"New Ashok Provision Store","pinCode":"500002","area":"Charminar","channelType":"grocery","beatId":29,"lat":17.366153,"lng":78.468735},{"outletId":"OUT0030","name":"Rajesh Kirana & General","pinCode":"500036","area":"Malakpet","channelType":"general","beatId":30,"lat":17.370291,"lng":78.508103},{"outletId":"OUT0031","name":"Om Srikanth Traders","pinCode":"500016","area":"Ameerpet","channelType":"grocery","beatId":31,"lat":17.437329,"lng":78.446156},{"outletId":"OUT0032","name":"Madhu Kirana Store","pinCode":"500072","area":"Kukatpally","channelType":"grocery","beatId":32,"lat":17.483769,"lng":78.396851},{"outletId":"OUT0033","name":"Shri Govind Kirana & General","pinCode":"500060","area":"Dilsukhnagar","channelType":"grocery","beatId":33,"lat":17.36725,"lng":78.516862},{"outletId":"OUT0034","name":"New Shiva Super Market","pinCode":"500016","area":"Begumpet","channelType":"cosmetic","beatId":34,"lat":17.449925,"lng":78.478506},{"outletId":"OUT0035","name":"Bhanu Kiryana","pinCode":"500003","area":"Secunderabad","channelType":"general","beatId":35,"lat":17.440059,"lng":78.493456},{"outletId":"OUT0036","name":"Shri Chandra Kiryana","pinCode":"500081","area":"Madhapur","channelType":"general","beatId":36,"lat":17.445908,"lng":78.392855},{"outletId":"OUT0037","name":"Maa Srinath Kirana Store","pinCode":"500032","area":"Gachibowli","channelType":"cosmetic","beatId":37,"lat":17.44298,"lng":78.356846},{"outletId":"OUT0038","name":"Shri Padma Kirana & General","pinCode":"500033","area":"Jubilee Hills","channelType":"grocery","beatId":38,"lat":17.425147,"lng":78.407986},{"outletId":"OUT0039","name":"Sridevi Traders","pinCode":"500034","area":"Banjara Hills","channelType":"grocery","beatId":39,"lat":17.418488,"lng":78.434302},{"outletId":"OUT0040","name":"Jyothi Mart","pinCode":"500029","area":"Himayath Nagar","channelType":"paan-plus","beatId":40,"lat":17.393729,"lng":78.493919},{"outletId":"OUT0041","name":"Sharma General Store","pinCode":"500028","area":"Mehdipatnam","channelType":"paan-plus","beatId":1,"lat":17.401995,"lng":78.442183},{"outletId":"OUT0042","name":"Maa Reddy Traders","pinCode":"500008","area":"Tolichowki","channelType":"general","beatId":2,"lat":17.39192,"lng":78.41315},{"outletId":"OUT0043","name":"Krishna Grocery","pinCode":"500074","area":"LB Nagar","channelType":"paan-plus","beatId":3,"lat":17.343554,"lng":78.556952},{"outletId":"OUT0044","name":"Lakshmi Kirana Store","pinCode":"500039","area":"Uppal","channelType":"general","beatId":4,"lat":17.394412,"lng":78.561384},{"outletId":"OUT0045","name":"Srinivas Super Market","pinCode":"500007","area":"Habsiguda","channelType":"paan-plus","beatId":5,"lat":17.401313,"lng":78.528792},{"outletId":"OUT0046","name":"Om Ramesh Traders","pinCode":"500017","area":"Tarnaka","channelType":"general","beatId":6,"lat":17.42517,"lng":78.52668},{"outletId":"OUT0047","name":"Suresh Kiryana","pinCode":"500047","area":"Malkajgiri","channelType":"general","beatId":7,"lat":17.451173,"lng":78.519293},{"outletId":"OUT0048","name":"Venkat Provision Store","pinCode":"500014","area":"Kompally","channelType":"general","beatId":8,"lat":17.534852,"lng":78.477537},{"outletId":"OUT0049","name":"Maa Ravi Kiryana","pinCode":"500049","area":"Miyapur","channelType":"general","beatId":9,"lat":17.488871,"lng":78.351796},{"outletId":"OUT0050","name":"Ganesh Mart","pinCode":"500050","area":"Chandanagar","channelType":"paan-plus","beatId":10,"lat":17.492941,"lng":78.338406},{"outletId":"OUT0051","name":"Om Sai Kirana & General","pinCode":"500019","area":"Lingampally","channelType":"paan-plus","beatId":11,"lat":17.4841,"lng":78.310491},{"outletId":"OUT0052","name":"Shri Balaji Grocery","pinCode":"500035","area":"Kothapet","channelType":"paan-plus","beatId":12,"lat":17.36331,"lng":78.550536},{"outletId":"OUT0053","name":"Sri Mahesh Mart","pinCode":"500076","area":"Nacharam","channelType":"cosmetic","beatId":13,"lat":17.416095,"lng":78.563392},{"outletId":"OUT0054","name":"Maa Patel Mart","pinCode":"500010","area":"Alwal","channelType":"cosmetic","beatId":14,"lat":17.495072,"lng":78.526009},{"outletId":"OUT0055","name":"Sri Kumar Traders","pinCode":"500011","area":"Bowenpally","channelType":"grocery","beatId":15,"lat":17.475651,"lng":78.48445},{"outletId":"OUT0056","name":"Prasad Super Market","pinCode":"500015","area":"Trimulgherry","channelType":"cosmetic","beatId":16,"lat":17.486972,"lng":78.506754},{"outletId":"OUT0057","name":"New Murthy Provision Store","pinCode":"500001","area":"Nampally","channelType":"grocery","beatId":17,"lat":17.382346,"lng":78.473005},{"outletId":"OUT0058","name":"Om Rao Provision Store","pinCode":"500001","area":"Abids","channelType":"general","beatId":18,"lat":17.391356,"lng":78.478698},{"outletId":"OUT0059","name":"Naidu Kiryana","pinCode":"500002","area":"Charminar","channelType":"paan-plus","beatId":19,"lat":17.366254,"lng":78.476695},{"outletId":"OUT0060","name":"Maa Swamy Provision Store","pinCode":"500036","area":"Malakpet","channelType":"general","beatId":20,"lat":17.3719,"lng":78.496244},{"outletId":"OUT0061","name":"Maa Raju Grocery","pinCode":"500016","area":"Ameerpet","channelType":"grocery","beatId":21,"lat":17.433375,"lng":78.450276},{"outletId":"OUT0062","name":"Mohan Traders","pinCode":"500072","area":"Kukatpally","channelType":"grocery","beatId":22,"lat":17.478902,"lng":78.400249},{"outletId":"OUT0063","name":"Anil Grocery","pinCode":"500060","area":"Dilsukhnagar","channelType":"grocery","beatId":23,"lat":17.361148,"lng":78.518255},{"outletId":"OUT0064","name":"Shri Vijay Traders","pinCode":"500016","area":"Begumpet","channelType":"general","beatId":24,"lat":17.444409,"lng":78.464026},{"outletId":"OUT0065","name":"Satish Provision Store","pinCode":"500003","area":"Secunderabad","channelType":"grocery","beatId":25,"lat":17.434415,"lng":78.496494},{"outletId":"OUT0066","name":"Sri Kiran Super Market","pinCode":"500081","area":"Madhapur","channelType":"general","beatId":26,"lat":17.443584,"lng":78.383617},{"outletId":"OUT0067","name":"Sekhar Super Market","pinCode":"500032","area":"Gachibowli","channelType":"paan-plus","beatId":27,"lat":17.446042,"lng":78.349692},{"outletId":"OUT0068","name":"Deepak Kirana & General","pinCode":"500033","area":"Jubilee Hills","channelType":"grocery","beatId":28,"lat":17.429123,"lng":78.410985},{"outletId":"OUT0069","name":"New Ashok Grocery","pinCode":"500034","area":"Banjara Hills","channelType":"paan-plus","beatId":29,"lat":17.409239,"lng":78.436731},{"outletId":"OUT0070","name":"Maa Rajesh Kirana & General","pinCode":"500029","area":"Himayath Nagar","channelType":"paan-plus","beatId":30,"lat":17.397974,"lng":78.484189},{"outletId":"OUT0071","name":"Om Srikanth Mart","pinCode":"500028","area":"Mehdipatnam","channelType":"general","beatId":31,"lat":17.398522,"lng":78.446731},{"outletId":"OUT0072","name":"Madhu Super Market","pinCode":"500008","area":"Tolichowki","channelType":"paan-plus","beatId":32,"lat":17.394565,"lng":78.406306},{"outletId":"OUT0073","name":"Govind General Store","pinCode":"500074","area":"LB Nagar","channelType":"paan-plus","beatId":33,"lat":17.353248,"lng":78.553947},{"outletId":"OUT0074","name":"Om Shiva Traders","pinCode":"500039","area":"Uppal","channelType":"general","beatId":34,"lat":17.402294,"lng":78.554464},{"outletId":"OUT0075","name":"Bhanu Shop","pinCode":"500007","area":"Habsiguda","channelType":"grocery","beatId":35,"lat":17.400284,"lng":78.530265},{"outletId":"OUT0076","name":"Chandra Mart","pinCode":"500017","area":"Tarnaka","channelType":"grocery","beatId":36,"lat":17.42767,"lng":78.537659},{"outletId":"OUT0077","name":"Shri Srinath Grocery","pinCode":"500047","area":"Malkajgiri","channelType":"general","beatId":37,"lat":17.45561,"lng":78.516696},{"outletId":"OUT0078","name":"Padma Kiryana","pinCode":"500014","area":"Kompally","channelType":"grocery","beatId":38,"lat":17.528859,"lng":78.489804},{"outletId":"OUT0079","name":"Sridevi Provision Store","pinCode":"500049","area":"Miyapur","channelType":"grocery","beatId":39,"lat":17.502671,"lng":78.350068},{"outletId":"OUT0080","name":"Sri Jyothi Traders","pinCode":"500050","area":"Chandanagar","channelType":"general","beatId":40,"lat":17.491218,"lng":78.335923},{"outletId":"OUT0081","name":"Sharma Super Market","pinCode":"500019","area":"Lingampally","channelType":"general","beatId":1,"lat":17.486937,"lng":78.315151},{"outletId":"OUT0082","name":"Sri Reddy Kiryana","pinCode":"500035","area":"Kothapet","channelType":"general","beatId":2,"lat":17.366954,"lng":78.544206},{"outletId":"OUT0083","name":"New Krishna Kirana & General","pinCode":"500076","area":"Nacharam","channelType":"general","beatId":3,"lat":17.409982,"lng":78.556252},{"outletId":"OUT0084","name":"Om Lakshmi Traders","pinCode":"500010","area":"Alwal","channelType":"general","beatId":4,"lat":17.493147,"lng":78.525767},{"outletId":"OUT0085","name":"Srinivas Kiryana","pinCode":"500011","area":"Bowenpally","channelType":"grocery","beatId":5,"lat":17.461805,"lng":78.472785},{"outletId":"OUT0086","name":"New Ramesh Provision Store","pinCode":"500015","area":"Trimulgherry","channelType":"grocery","beatId":6,"lat":17.477109,"lng":78.496853},{"outletId":"OUT0087","name":"Suresh Mart","pinCode":"500001","area":"Nampally","channelType":"paan-plus","beatId":7,"lat":17.389743,"lng":78.47995},{"outletId":"OUT0088","name":"Venkat Kiryana","pinCode":"500001","area":"Abids","channelType":"grocery","beatId":8,"lat":17.385614,"lng":78.482361},{"outletId":"OUT0089","name":"Om Ravi Kirana & General","pinCode":"500002","area":"Charminar","channelType":"paan-plus","beatId":9,"lat":17.356788,"lng":78.46728},{"outletId":"OUT0090","name":"Ganesh Super Market","pinCode":"500036","area":"Malakpet","channelType":"cosmetic","beatId":10,"lat":17.369925,"lng":78.506895},{"outletId":"OUT0091","name":"Sai General Store","pinCode":"500016","area":"Ameerpet","channelType":"grocery","beatId":11,"lat":17.437815,"lng":78.444927},{"outletId":"OUT0092","name":"Balaji Kirana & General","pinCode":"500072","area":"Kukatpally","channelType":"general","beatId":12,"lat":17.480104,"lng":78.406398},{"outletId":"OUT0093","name":"Shri Mahesh Shop","pinCode":"500060","area":"Dilsukhnagar","channelType":"grocery","beatId":13,"lat":17.363068,"lng":78.528098},{"outletId":"OUT0094","name":"Patel Kiryana","pinCode":"500016","area":"Begumpet","channelType":"cosmetic","beatId":14,"lat":17.451644,"lng":78.465053},{"outletId":"OUT0095","name":"Shri Kumar Traders","pinCode":"500003","area":"Secunderabad","channelType":"grocery","beatId":15,"lat":17.44429,"lng":78.505867},{"outletId":"OUT0096","name":"Shri Prasad Super Market","pinCode":"500081","area":"Madhapur","channelType":"general","beatId":16,"lat":17.442642,"lng":78.390244},{"outletId":"OUT0097","name":"Murthy Traders","pinCode":"500032","area":"Gachibowli","channelType":"grocery","beatId":17,"lat":17.435184,"lng":78.354989},{"outletId":"OUT0098","name":"Maa Rao Kirana Store","pinCode":"500033","area":"Jubilee Hills","channelType":"paan-plus","beatId":18,"lat":17.429562,"lng":78.402968},{"outletId":"OUT0099","name":"Naidu Grocery","pinCode":"500034","area":"Banjara Hills","channelType":"grocery","beatId":19,"lat":17.42177,"lng":78.437797},{"outletId":"OUT0100","name":"Om Swamy Grocery","pinCode":"500029","area":"Himayath Nagar","channelType":"grocery","beatId":20,"lat":17.395539,"lng":78.489544},{"outletId":"OUT0101","name":"Om Raju Kiryana","pinCode":"500028","area":"Mehdipatnam","channelType":"paan-plus","beatId":21,"lat":17.401362,"lng":78.443925},{"outletId":"OUT0102","name":"Mohan General Store","pinCode":"500008","area":"Tolichowki","channelType":"general","beatId":22,"lat":17.405003,"lng":78.408038},{"outletId":"OUT0103","name":"Maa Anil General Store","pinCode":"500074","area":"LB Nagar","channelType":"grocery","beatId":23,"lat":17.343963,"lng":78.557734},{"outletId":"OUT0104","name":"New Vijay Kiryana","pinCode":"500039","area":"Uppal","channelType":"grocery","beatId":24,"lat":17.405559,"lng":78.566163},{"outletId":"OUT0105","name":"Satish Super Market","pinCode":"500007","area":"Habsiguda","channelType":"paan-plus","beatId":25,"lat":17.406677,"lng":78.540886},{"outletId":"OUT0106","name":"New Kiran Super Market","pinCode":"500017","area":"Tarnaka","channelType":"general","beatId":26,"lat":17.417265,"lng":78.536322},{"outletId":"OUT0107","name":"Sekhar Mart","pinCode":"500047","area":"Malkajgiri","channelType":"general","beatId":27,"lat":17.455289,"lng":78.516367},{"outletId":"OUT0108","name":"Deepak Kirana Store","pinCode":"500014","area":"Kompally","channelType":"grocery","beatId":28,"lat":17.537331,"lng":78.491965},{"outletId":"OUT0109","name":"Ashok Mart","pinCode":"500049","area":"Miyapur","channelType":"grocery","beatId":29,"lat":17.500399,"lng":78.350984},{"outletId":"OUT0110","name":"Rajesh Grocery","pinCode":"500050","area":"Chandanagar","channelType":"grocery","beatId":30,"lat":17.490697,"lng":78.338503},{"outletId":"OUT0111","name":"Om Srikanth Provision Store","pinCode":"500019","area":"Lingampally","channelType":"grocery","beatId":31,"lat":17.485894,"lng":78.31616},{"outletId":"OUT0112","name":"Sri Madhu Kiryana","pinCode":"500035","area":"Kothapet","channelType":"grocery","beatId":32,"lat":17.35792,"lng":78.550447},{"outletId":"OUT0113","name":"Om Govind Kirana Store","pinCode":"500076","area":"Nacharam","channelType":"general","beatId":33,"lat":17.411534,"lng":78.561801},{"outletId":"OUT0114","name":"New Shiva General Store","pinCode":"500010","area":"Alwal","channelType":"grocery","beatId":34,"lat":17.489411,"lng":78.521257},{"outletId":"OUT0115","name":"Om Bhanu General Store","pinCode":"500011","area":"Bowenpally","channelType":"grocery","beatId":35,"lat":17.4636,"lng":78.485871},{"outletId":"OUT0116","name":"Shri Chandra Grocery","pinCode":"500015","area":"Trimulgherry","channelType":"paan-plus","beatId":36,"lat":17.477061,"lng":78.509187},{"outletId":"OUT0117","name":"Om Srinath Kiryana","pinCode":"500001","area":"Nampally","channelType":"general","beatId":37,"lat":17.382832,"lng":78.480071},{"outletId":"OUT0118","name":"Om Padma Kirana Store","pinCode":"500001","area":"Abids","channelType":"general","beatId":38,"lat":17.394574,"lng":78.473815},{"outletId":"OUT0119","name":"Sridevi Mart","pinCode":"500002","area":"Charminar","channelType":"grocery","beatId":39,"lat":17.364476,"lng":78.476214},{"outletId":"OUT0120","name":"Jyothi Grocery","pinCode":"500036","area":"Malakpet","channelType":"general","beatId":40,"lat":17.368275,"lng":78.50097},{"outletId":"OUT0121","name":"Sharma Provision Store","pinCode":"500016","area":"Ameerpet","channelType":"paan-plus","beatId":1,"lat":17.443969,"lng":78.452135},{"outletId":"OUT0122","name":"Reddy Kirana & General","pinCode":"500072","area":"Kukatpally","channelType":"grocery","beatId":2,"lat":17.489872,"lng":78.392089},{"outletId":"OUT0123","name":"Krishna Shop","pinCode":"500060","area":"Dilsukhnagar","channelType":"general","beatId":3,"lat":17.366892,"lng":78.527442},{"outletId":"OUT0124","name":"Lakshmi Traders","pinCode":"500016","area":"Begumpet","channelType":"general","beatId":4,"lat":17.450262,"lng":78.470733},{"outletId":"OUT0125","name":"Srinivas Mart","pinCode":"500003","area":"Secunderabad","channelType":"general","beatId":5,"lat":17.434618,"lng":78.491004},{"outletId":"OUT0126","name":"Ramesh Kirana & General","pinCode":"500081","area":"Madhapur","channelType":"general","beatId":6,"lat":17.445661,"lng":78.392933},{"outletId":"OUT0127","name":"Om Suresh Shop","pinCode":"500032","area":"Gachibowli","channelType":"grocery","beatId":7,"lat":17.444056,"lng":78.349447},{"outletId":"OUT0128","name":"New Venkat General Store","pinCode":"500033","area":"Jubilee Hills","channelType":"paan-plus","beatId":8,"lat":17.434263,"lng":78.410857},{"outletId":"OUT0129","name":"Sri Ravi Kirana Store","pinCode":"500034","area":"Banjara Hills","channelType":"general","beatId":9,"lat":17.420186,"lng":78.44406},{"outletId":"OUT0130","name":"Ganesh Grocery","pinCode":"500029","area":"Himayath Nagar","channelType":"grocery","beatId":10,"lat":17.391053,"lng":78.490511},{"outletId":"OUT0131","name":"Sai Mart","pinCode":"500028","area":"Mehdipatnam","channelType":"general","beatId":11,"lat":17.394936,"lng":78.442738},{"outletId":"OUT0132","name":"Balaji Kirana & General","pinCode":"500008","area":"Tolichowki","channelType":"cosmetic","beatId":12,"lat":17.390374,"lng":78.416616},{"outletId":"OUT0133","name":"Mahesh Traders","pinCode":"500074","area":"LB Nagar","channelType":"cosmetic","beatId":13,"lat":17.351362,"lng":78.549181},{"outletId":"OUT0134","name":"Patel Super Market","pinCode":"500039","area":"Uppal","channelType":"paan-plus","beatId":14,"lat":17.394513,"lng":78.554206},{"outletId":"OUT0135","name":"Sri Kumar Grocery","pinCode":"500007","area":"Habsiguda","channelType":"cosmetic","beatId":15,"lat":17.408891,"lng":78.532953},{"outletId":"OUT0136","name":"New Prasad Shop","pinCode":"500017","area":"Tarnaka","channelType":"grocery","beatId":16,"lat":17.4183,"lng":78.526437},{"outletId":"OUT0137","name":"New Murthy General Store","pinCode":"500047","area":"Malkajgiri","channelType":"grocery","beatId":17,"lat":17.457652,"lng":78.527138},{"outletId":"OUT0138","name":"Rao Mart","pinCode":"500014","area":"Kompally","channelType":"grocery","beatId":18,"lat":17.540604,"lng":78.486427},{"outletId":"OUT0139","name":"Om Naidu Kirana Store","pinCode":"500049","area":"Miyapur","channelType":"cosmetic","beatId":19,"lat":17.498329,"lng":78.356774},{"outletId":"OUT0140","name":"Sri Swamy General Store","pinCode":"500050","area":"Chandanagar","channelType":"grocery","beatId":20,"lat":17.483919,"lng":78.328431},{"outletId":"OUT0141","name":"Raju General Store","pinCode":"500019","area":"Lingampally","channelType":"general","beatId":21,"lat":17.494116,"lng":78.310773},{"outletId":"OUT0142","name":"Maa Mohan Super Market","pinCode":"500035","area":"Kothapet","channelType":"grocery","beatId":22,"lat":17.363162,"lng":78.545518},{"outletId":"OUT0143","name":"New Anil Mart","pinCode":"500076","area":"Nacharam","channelType":"paan-plus","beatId":23,"lat":17.406386,"lng":78.565327},{"outletId":"OUT0144","name":"Vijay General Store","pinCode":"500010","area":"Alwal","channelType":"grocery","beatId":24,"lat":17.496025,"lng":78.511655},{"outletId":"OUT0145","name":"Maa Satish Mart","pinCode":"500011","area":"Bowenpally","channelType":"paan-plus","beatId":25,"lat":17.464289,"lng":78.478504},{"outletId":"OUT0146","name":"Kiran Kirana Store","pinCode":"500015","area":"Trimulgherry","channelType":"paan-plus","beatId":26,"lat":17.476481,"lng":78.498565},{"outletId":"OUT0147","name":"Sekhar Super Market","pinCode":"500001","area":"Nampally","channelType":"paan-plus","beatId":27,"lat":17.386981,"lng":78.475307},{"outletId":"OUT0148","name":"Sri Deepak Traders","pinCode":"500001","area":"Abids","channelType":"general","beatId":28,"lat":17.388989,"lng":78.473507},{"outletId":"OUT0149","name":"Shri Ashok Mart","pinCode":"500002","area":"Charminar","channelType":"general","beatId":29,"lat":17.367778,"lng":78.47711},{"outletId":"OUT0150","name":"Maa Rajesh Kirana & General","pinCode":"500036","area":"Malakpet","channelType":"general","beatId":30,"lat":17.378341,"lng":78.493356},{"outletId":"OUT0151","name":"Srikanth General Store","pinCode":"500016","area":"Ameerpet","channelType":"paan-plus","beatId":31,"lat":17.432736,"lng":78.445249},{"outletId":"OUT0152","name":"Madhu Mart","pinCode":"500072","area":"Kukatpally","channelType":"grocery","beatId":32,"lat":17.476934,"lng":78.396283},{"outletId":"OUT0153","name":"Govind Kirana Store","pinCode":"500060","area":"Dilsukhnagar","channelType":"grocery","beatId":33,"lat":17.366022,"lng":78.5251},{"outletId":"OUT0154","name":"Shiva Provision Store","pinCode":"500016","area":"Begumpet","channelType":"general","beatId":34,"lat":17.443555,"lng":78.471527},{"outletId":"OUT0155","name":"Bhanu Kirana & General","pinCode":"500003","area":"Secunderabad","channelType":"grocery","beatId":35,"lat":17.437267,"lng":78.491479},{"outletId":"OUT0156","name":"Chandra Mart","pinCode":"500081","area":"Madhapur","channelType":"general","beatId":36,"lat":17.455162,"lng":78.387818},{"outletId":"OUT0157","name":"Srinath Provision Store","pinCode":"500032","area":"Gachibowli","channelType":"paan-plus","beatId":37,"lat":17.445101,"lng":78.352138},{"outletId":"OUT0158","name":"Maa Padma Traders","pinCode":"500033","area":"Jubilee Hills","channelType":"general","beatId":38,"lat":17.440269,"lng":78.40115},{"outletId":"OUT0159","name":"Sridevi Super Market","pinCode":"500034","area":"Banjara Hills","channelType":"grocery","beatId":39,"lat":17.420996,"lng":78.438716},{"outletId":"OUT0160","name":"Maa Jyothi General Store","pinCode":"500029","area":"Himayath Nagar","channelType":"grocery","beatId":40,"lat":17.400718,"lng":78.484071},{"outletId":"OUT0161","name":"Sharma Grocery","pinCode":"500028","area":"Mehdipatnam","channelType":"grocery","beatId":1,"lat":17.398796,"lng":78.449228},{"outletId":"OUT0162","name":"Om Reddy General Store","pinCode":"500008","area":"Tolichowki","channelType":"grocery","beatId":2,"lat":17.399871,"lng":78.409524},{"outletId":"OUT0163","name":"Shri Krishna Shop","pinCode":"500074","area":"LB Nagar","channelType":"paan-plus","beatId":3,"lat":17.350266,"lng":78.549568},{"outletId":"OUT0164","name":"Sri Lakshmi Shop","pinCode":"500039","area":"Uppal","channelType":"grocery","beatId":4,"lat":17.408877,"lng":78.554681},{"outletId":"OUT0165","name":"Srinivas Super Market","pinCode":"500007","area":"Habsiguda","channelType":"grocery","beatId":5,"lat":17.411096,"lng":78.542728},{"outletId":"OUT0166","name":"Shri Ramesh Grocery","pinCode":"500017","area":"Tarnaka","channelType":"grocery","beatId":6,"lat":17.424687,"lng":78.5268},{"outletId":"OUT0167","name":"Suresh Grocery","pinCode":"500047","area":"Malkajgiri","channelType":"general","beatId":7,"lat":17.459445,"lng":78.51821},{"outletId":"OUT0168","name":"Venkat General Store","pinCode":"500014","area":"Kompally","channelType":"general","beatId":8,"lat":17.532908,"lng":78.488683},{"outletId":"OUT0169","name":"Ravi General Store","pinCode":"500049","area":"Miyapur","channelType":"grocery","beatId":9,"lat":17.490309,"lng":78.347924},{"outletId":"OUT0170","name":"Ganesh Mart","pinCode":"500050","area":"Chandanagar","channelType":"cosmetic","beatId":10,"lat":17.494749,"lng":78.32973},{"outletId":"OUT0171","name":"Sri Sai Traders","pinCode":"500019","area":"Lingampally","channelType":"grocery","beatId":11,"lat":17.48634,"lng":78.313433},{"outletId":"OUT0172","name":"Balaji Shop","pinCode":"500035","area":"Kothapet","channelType":"grocery","beatId":12,"lat":17.355999,"lng":78.55498},{"outletId":"OUT0173","name":"Mahesh Kirana Store","pinCode":"500076","area":"Nacharam","channelType":"general","beatId":13,"lat":17.40549,"lng":78.553371},{"outletId":"OUT0174","name":"Om Patel General Store","pinCode":"500010","area":"Alwal","channelType":"grocery","beatId":14,"lat":17.493976,"lng":78.523804},{"outletId":"OUT0175","name":"New Kumar Provision Store","pinCode":"500011","area":"Bowenpally","channelType":"paan-plus","beatId":15,"lat":17.459895,"lng":78.47681},{"outletId":"OUT0176","name":"Om Prasad Kirana Store","pinCode":"500015","area":"Trimulgherry","channelType":"paan-plus","beatId":16,"lat":17.474956,"lng":78.50456},{"outletId":"OUT0177","name":"Shri Murthy Provision Store","pinCode":"500001","area":"Nampally","channelType":"grocery","beatId":17,"lat":17.380917,"lng":78.468689},{"outletId":"OUT0178","name":"Om Rao Grocery","pinCode":"500001","area":"Abids","channelType":"cosmetic","beatId":18,"lat":17.397409,"lng":78.472101},{"outletId":"OUT0179","name":"Naidu Kirana Store","pinCode":"500002","area":"Charminar","channelType":"paan-plus","beatId":19,"lat":17.358753,"lng":78.478196},{"outletId":"OUT0180","name":"Sri Swamy Kiryana","pinCode":"500036","area":"Malakpet","channelType":"paan-plus","beatId":20,"lat":17.370045,"lng":78.494171},{"outletId":"OUT0181","name":"New Raju General Store","pinCode":"500016","area":"Ameerpet","channelType":"grocery","beatId":21,"lat":17.435244,"lng":78.440954},{"outletId":"OUT0182","name":"New Mohan General Store","pinCode":"500072","area":"Kukatpally","channelType":"grocery","beatId":22,"lat":17.477027,"lng":78.405833},{"outletId":"OUT0183","name":"Om Anil Grocery","pinCode":"500060","area":"Dilsukhnagar","channelType":"grocery","beatId":23,"lat":17.364455,"lng":78.527497},{"outletId":"OUT0184","name":"Vijay Provision Store","pinCode":"500016","area":"Begumpet","channelType":"grocery","beatId":24,"lat":17.437498,"lng":78.467452},{"outletId":"OUT0185","name":"Satish Kirana & General","pinCode":"500003","area":"Secunderabad","channelType":"general","beatId":25,"lat":17.432625,"lng":78.494107},{"outletId":"OUT0186","name":"Shri Kiran Kirana & General","pinCode":"500081","area":"Madhapur","channelType":"grocery","beatId":26,"lat":17.455934,"lng":78.390549},{"outletId":"OUT0187","name":"Maa Sekhar Provision Store","pinCode":"500032","area":"Gachibowli","channelType":"general","beatId":27,"lat":17.439356,"lng":78.348351},{"outletId":"OUT0188","name":"Shri Deepak Kirana Store","pinCode":"500033","area":"Jubilee Hills","channelType":"general","beatId":28,"lat":17.436334,"lng":78.407785},{"outletId":"OUT0189","name":"New Ashok Super Market","pinCode":"500034","area":"Banjara Hills","channelType":"cosmetic","beatId":29,"lat":17.413846,"lng":78.442775},{"outletId":"OUT0190","name":"Rajesh Provision Store","pinCode":"500029","area":"Himayath Nagar","channelType":"grocery","beatId":30,"lat":17.392025,"lng":78.488364},{"outletId":"OUT0191","name":"Sri Srikanth Grocery","pinCode":"500028","area":"Mehdipatnam","channelType":"grocery","beatId":31,"lat":17.394995,"lng":78.441475},{"outletId":"OUT0192","name":"New Madhu Mart","pinCode":"500008","area":"Tolichowki","channelType":"grocery","beatId":32,"lat":17.391424,"lng":78.414939},{"outletId":"OUT0193","name":"Om Govind General Store","pinCode":"500074","area":"LB Nagar","channelType":"cosmetic","beatId":33,"lat":17.348047,"lng":78.550177},{"outletId":"OUT0194","name":"Shri Shiva Super Market","pinCode":"500039","area":"Uppal","channelType":"general","beatId":34,"lat":17.404075,"lng":78.555226},{"outletId":"OUT0195","name":"Bhanu Provision Store","pinCode":"500007","area":"Habsiguda","channelType":"general","beatId":35,"lat":17.40821,"lng":78.543505},{"outletId":"OUT0196","name":"Sri Chandra Grocery","pinCode":"500017","area":"Tarnaka","channelType":"general","beatId":36,"lat":17.419119,"lng":78.526913},{"outletId":"OUT0197","name":"Srinath Kirana & General","pinCode":"500047","area":"Malkajgiri","channelType":"general","beatId":37,"lat":17.456184,"lng":78.520637},{"outletId":"OUT0198","name":"Padma Shop","pinCode":"500014","area":"Kompally","channelType":"general","beatId":38,"lat":17.535273,"lng":78.485574},{"outletId":"OUT0199","name":"Sri Sridevi Shop","pinCode":"500049","area":"Miyapur","channelType":"paan-plus","beatId":39,"lat":17.496057,"lng":78.346344},{"outletId":"OUT0200","name":"New Jyothi Kiryana","pinCode":"500050","area":"Chandanagar","channelType":"grocery","beatId":40,"lat":17.486963,"lng":78.328768},{"outletId":"OUT0201","name":"New Sharma Traders","pinCode":"500019","area":"Lingampally","channelType":"grocery","beatId":1,"lat":17.49234,"lng":78.310898},{"outletId":"OUT0202","name":"Shri Reddy Traders","pinCode":"500035","area":"Kothapet","channelType":"grocery","beatId":2,"lat":17.358432,"lng":78.553408},{"outletId":"OUT0203","name":"Sri Krishna Kirana & General","pinCode":"500076","area":"Nacharam","channelType":"paan-plus","beatId":3,"lat":17.407292,"lng":78.553848},{"outletId":"OUT0204","name":"Sri Lakshmi Mart","pinCode":"500010","area":"Alwal","channelType":"grocery","beatId":4,"lat":17.501688,"lng":78.510327},{"outletId":"OUT0205","name":"Srinivas Shop","pinCode":"500011","area":"Bowenpally","channelType":"general","beatId":5,"lat":17.46176,"lng":78.477385},{"outletId":"OUT0206","name":"Ramesh Provision Store","pinCode":"500015","area":"Trimulgherry","channelType":"paan-plus","beatId":6,"lat":17.484578,"lng":78.500061},{"outletId":"OUT0207","name":"Suresh Grocery","pinCode":"500001","area":"Nampally","channelType":"general","beatId":7,"lat":17.389443,"lng":78.471954},{"outletId":"OUT0208","name":"Venkat Mart","pinCode":"500001","area":"Abids","channelType":"grocery","beatId":8,"lat":17.399775,"lng":78.473178},{"outletId":"OUT0209","name":"New Ravi Kirana & General","pinCode":"500002","area":"Charminar","channelType":"cosmetic","beatId":9,"lat":17.363527,"lng":78.470686},{"outletId":"OUT0210","name":"Sri Ganesh General Store","pinCode":"500036","area":"Malakpet","channelType":"grocery","beatId":10,"lat":17.374682,"lng":78.505265},{"outletId":"OUT0211","name":"New Sai Kirana Store","pinCode":"500016","area":"Ameerpet","channelType":"grocery","beatId":11,"lat":17.434903,"lng":78.446385},{"outletId":"OUT0212","name":"Sri Balaji Shop","pinCode":"500072","area":"Kukatpally","channelType":"grocery","beatId":12,"lat":17.490723,"lng":78.393564},{"outletId":"OUT0213","name":"Mahesh General Store","pinCode":"500060","area":"Dilsukhnagar","channelType":"general","beatId":13,"lat":17.372827,"lng":78.523417},{"outletId":"OUT0214","name":"Sri Patel Shop","pinCode":"500016","area":"Begumpet","channelType":"cosmetic","beatId":14,"lat":17.4394,"lng":78.465677},{"outletId":"OUT0215","name":"New Kumar Shop","pinCode":"500003","area":"Secunderabad","channelType":"paan-plus","beatId":15,"lat":17.442438,"lng":78.494167},{"outletId":"OUT0216","name":"Prasad Mart","pinCode":"500081","area":"Madhapur","channelType":"grocery","beatId":16,"lat":17.443355,"lng":78.392222},{"outletId":"OUT0217","name":"Murthy Kirana Store","pinCode":"500032","area":"Gachibowli","channelType":"general","beatId":17,"lat":17.447258,"lng":78.347838},{"outletId":"OUT0218","name":"Rao Super Market","pinCode":"500033","area":"Jubilee Hills","channelType":"paan-plus","beatId":18,"lat":17.427805,"lng":78.415097},{"outletId":"OUT0219","name":"Sri Naidu Kirana Store","pinCode":"500034","area":"Banjara Hills","channelType":"grocery","beatId":19,"lat":17.410085,"lng":78.431942},{"outletId":"OUT0220","name":"Maa Swamy Traders","pinCode":"500029","area":"Himayath Nagar","channelType":"grocery","beatId":20,"lat":17.390835,"lng":78.483931},{"outletId":"OUT0221","name":"Shri Raju Kiryana","pinCode":"500028","area":"Mehdipatnam","channelType":"general","beatId":21,"lat":17.387638,"lng":78.438512},{"outletId":"OUT0222","name":"Mohan Shop","pinCode":"500008","area":"Tolichowki","channelType":"grocery","beatId":22,"lat":17.391714,"lng":78.410534},{"outletId":"OUT0223","name":"Anil Mart","pinCode":"500074","area":"LB Nagar","channelType":"general","beatId":23,"lat":17.342132,"lng":78.558511},{"outletId":"OUT0224","name":"Shri Vijay Mart","pinCode":"500039","area":"Uppal","channelType":"grocery","beatId":24,"lat":17.3971,"lng":78.557528},{"outletId":"OUT0225","name":"Satish Shop","pinCode":"500007","area":"Habsiguda","channelType":"general","beatId":25,"lat":17.401837,"lng":78.532748},{"outletId":"OUT0226","name":"Kiran General Store","pinCode":"500017","area":"Tarnaka","channelType":"cosmetic","beatId":26,"lat":17.432382,"lng":78.537859},{"outletId":"OUT0227","name":"Sekhar Traders","pinCode":"500047","area":"Malkajgiri","channelType":"grocery","beatId":27,"lat":17.448273,"lng":78.528657},{"outletId":"OUT0228","name":"Deepak Mart","pinCode":"500014","area":"Kompally","channelType":"general","beatId":28,"lat":17.529646,"lng":78.481865},{"outletId":"OUT0229","name":"Sri Ashok General Store","pinCode":"500049","area":"Miyapur","channelType":"paan-plus","beatId":29,"lat":17.497916,"lng":78.352211},{"outletId":"OUT0230","name":"Rajesh Shop","pinCode":"500050","area":"Chandanagar","channelType":"paan-plus","beatId":30,"lat":17.493428,"lng":78.334952},{"outletId":"OUT0231","name":"Om Srikanth Mart","pinCode":"500019","area":"Lingampally","channelType":"general","beatId":31,"lat":17.494249,"lng":78.324702},{"outletId":"OUT0232","name":"Sri Madhu Traders","pinCode":"500035","area":"Kothapet","channelType":"general","beatId":32,"lat":17.363671,"lng":78.543293},{"outletId":"OUT0233","name":"Govind Traders","pinCode":"500076","area":"Nacharam","channelType":"general","beatId":33,"lat":17.413436,"lng":78.557803},{"outletId":"OUT0234","name":"Shiva Kiryana","pinCode":"500010","area":"Alwal","channelType":"general","beatId":34,"lat":17.492572,"lng":78.523055},{"outletId":"OUT0235","name":"Bhanu Grocery","pinCode":"500011","area":"Bowenpally","channelType":"general","beatId":35,"lat":17.464574,"lng":78.476058},{"outletId":"OUT0236","name":"New Chandra Kirana & General","pinCode":"500015","area":"Trimulgherry","channelType":"grocery","beatId":36,"lat":17.483403,"lng":78.510993},{"outletId":"OUT0237","name":"Srinath Provision Store","pinCode":"500001","area":"Nampally","channelType":"cosmetic","beatId":37,"lat":17.391101,"lng":78.474973},{"outletId":"OUT0238","name":"Padma Mart","pinCode":"500001","area":"Abids","channelType":"grocery","beatId":38,"lat":17.392853,"lng":78.482678},{"outletId":"OUT0239","name":"Om Sridevi Kiryana","pinCode":"500002","area":"Charminar","channelType":"paan-plus","beatId":39,"lat":17.358332,"lng":78.478312},{"outletId":"OUT0240","name":"Jyothi Shop","pinCode":"500036","area":"Malakpet","channelType":"general","beatId":40,"lat":17.368359,"lng":78.508531},{"outletId":"OUT0241","name":"Sharma Kirana & General","pinCode":"500016","area":"Ameerpet","channelType":"general","beatId":1,"lat":17.443073,"lng":78.455173},{"outletId":"OUT0242","name":"Shri Reddy Mart","pinCode":"500072","area":"Kukatpally","channelType":"grocery","beatId":2,"lat":17.479558,"lng":78.399999},{"outletId":"OUT0243","name":"Om Krishna Shop","pinCode":"500060","area":"Dilsukhnagar","channelType":"paan-plus","beatId":3,"lat":17.366625,"lng":78.522095},{"outletId":"OUT0244","name":"Lakshmi Kirana Store","pinCode":"500016","area":"Begumpet","channelType":"grocery","beatId":4,"lat":17.438965,"lng":78.464596},{"outletId":"OUT0245","name":"New Srinivas Kiryana","pinCode":"500003","area":"Secunderabad","channelType":"grocery","beatId":5,"lat":17.437447,"lng":78.499356},{"outletId":"OUT0246","name":"Sri Ramesh Kiryana","pinCode":"500081","area":"Madhapur","channelType":"paan-plus","beatId":6,"lat":17.44338,"lng":78.397894},{"outletId":"OUT0247","name":"Om Suresh Provision Store","pinCode":"500032","area":"Gachibowli","channelType":"cosmetic","beatId":7,"lat":17.437582,"lng":78.350463},{"outletId":"OUT0248","name":"Venkat Mart","pinCode":"500033","area":"Jubilee Hills","channelType":"grocery","beatId":8,"lat":17.42553,"lng":78.413428},{"outletId":"OUT0249","name":"Ravi General Store","pinCode":"500034","area":"Banjara Hills","channelType":"general","beatId":9,"lat":17.421443,"lng":78.438838},{"outletId":"OUT0250","name":"New Ganesh Traders","pinCode":"500029","area":"Himayath Nagar","channelType":"general","beatId":10,"lat":17.399645,"lng":78.488258},{"outletId":"OUT0251","name":"Maa Sai Kirana & General","pinCode":"500028","area":"Mehdipatnam","channelType":"grocery","beatId":11,"lat":17.393832,"lng":78.437963},{"outletId":"OUT0252","name":"Balaji Kirana Store","pinCode":"500008","area":"Tolichowki","channelType":"general","beatId":12,"lat":17.395037,"lng":78.416367},{"outletId":"OUT0253","name":"New Mahesh Kirana Store","pinCode":"500074","area":"LB Nagar","channelType":"cosmetic","beatId":13,"lat":17.344343,"lng":78.55744},{"outletId":"OUT0254","name":"Patel General Store","pinCode":"500039","area":"Uppal","channelType":"general","beatId":14,"lat":17.404137,"lng":78.553422},{"outletId":"OUT0255","name":"Om Kumar Super Market","pinCode":"500007","area":"Habsiguda","channelType":"paan-plus","beatId":15,"lat":17.412215,"lng":78.539824},{"outletId":"OUT0256","name":"Shri Prasad Super Market","pinCode":"500017","area":"Tarnaka","channelType":"cosmetic","beatId":16,"lat":17.42866,"lng":78.530099},{"outletId":"OUT0257","name":"Shri Murthy General Store","pinCode":"500047","area":"Malkajgiri","channelType":"general","beatId":17,"lat":17.446534,"lng":78.518203},{"outletId":"OUT0258","name":"Maa Rao Shop","pinCode":"500014","area":"Kompally","channelType":"grocery","beatId":18,"lat":17.534712,"lng":78.479035},{"outletId":"OUT0259","name":"Maa Naidu General Store","pinCode":"500049","area":"Miyapur","channelType":"paan-plus","beatId":19,"lat":17.492284,"lng":78.353635},{"outletId":"OUT0260","name":"Maa Swamy Provision Store","pinCode":"500050","area":"Chandanagar","channelType":"general","beatId":20,"lat":17.487602,"lng":78.336088},{"outletId":"OUT0261","name":"Raju Provision Store","pinCode":"500019","area":"Lingampally","channelType":"general","beatId":21,"lat":17.484225,"lng":78.322637},{"outletId":"OUT0262","name":"Om Mohan Provision Store","pinCode":"500035","area":"Kothapet","channelType":"grocery","beatId":22,"lat":17.360323,"lng":78.542923},{"outletId":"OUT0263","name":"Om Anil Grocery","pinCode":"500076","area":"Nacharam","channelType":"grocery","beatId":23,"lat":17.4197,"lng":78.56589},{"outletId":"OUT0264","name":"Om Vijay Kirana & General","pinCode":"500010","area":"Alwal","channelType":"general","beatId":24,"lat":17.493728,"lng":78.513994},{"outletId":"OUT0265","name":"Satish Kirana & General","pinCode":"500011","area":"Bowenpally","channelType":"paan-plus","beatId":25,"lat":17.462619,"lng":78.480946},{"outletId":"OUT0266","name":"Kiran Mart","pinCode":"500015","area":"Trimulgherry","channelType":"grocery","beatId":26,"lat":17.480659,"lng":78.501511},{"outletId":"OUT0267","name":"Sekhar Kirana & General","pinCode":"500001","area":"Nampally","channelType":"grocery","beatId":27,"lat":17.385514,"lng":78.465533},{"outletId":"OUT0268","name":"New Deepak Kirana Store","pinCode":"500001","area":"Abids","channelType":"cosmetic","beatId":28,"lat":17.392099,"lng":78.479848},{"outletId":"OUT0269","name":"Ashok Traders","pinCode":"500002","area":"Charminar","channelType":"paan-plus","beatId":29,"lat":17.366391,"lng":78.481371},{"outletId":"OUT0270","name":"Rajesh Super Market","pinCode":"500036","area":"Malakpet","channelType":"general","beatId":30,"lat":17.380545,"lng":78.506286},{"outletId":"OUT0271","name":"Srikanth Kirana Store","pinCode":"500016","area":"Ameerpet","channelType":"grocery","beatId":31,"lat":17.43062,"lng":78.447125},{"outletId":"OUT0272","name":"Maa Madhu Super Market","pinCode":"500072","area":"Kukatpally","channelType":"general","beatId":32,"lat":17.489724,"lng":78.40569},{"outletId":"OUT0273","name":"Govind Kirana & General","pinCode":"500060","area":"Dilsukhnagar","channelType":"paan-plus","beatId":33,"lat":17.373558,"lng":78.526899},{"outletId":"OUT0274","name":"Maa Shiva Grocery","pinCode":"500016","area":"Begumpet","channelType":"general","beatId":34,"lat":17.446576,"lng":78.476331},{"outletId":"OUT0275","name":"Bhanu Grocery","pinCode":"500003","area":"Secunderabad","channelType":"cosmetic","beatId":35,"lat":17.44679,"lng":78.498782},{"outletId":"OUT0276","name":"Om Chandra Shop","pinCode":"500081","area":"Madhapur","channelType":"grocery","beatId":36,"lat":17.441674,"lng":78.388329},{"outletId":"OUT0277","name":"Srinath General Store","pinCode":"500032","area":"Gachibowli","channelType":"paan-plus","beatId":37,"lat":17.443212,"lng":78.349781},{"outletId":"OUT0278","name":"Padma Shop","pinCode":"500033","area":"Jubilee Hills","channelType":"paan-plus","beatId":38,"lat":17.425631,"lng":78.402819},{"outletId":"OUT0279","name":"Sridevi Grocery","pinCode":"500034","area":"Banjara Hills","channelType":"grocery","beatId":39,"lat":17.414815,"lng":78.444286},{"outletId":"OUT0280","name":"Jyothi Super Market","pinCode":"500029","area":"Himayath Nagar","channelType":"grocery","beatId":40,"lat":17.4015,"lng":78.492431},{"outletId":"OUT0281","name":"Maa Sharma Kiryana","pinCode":"500028","area":"Mehdipatnam","channelType":"general","beatId":1,"lat":17.401019,"lng":78.448293},{"outletId":"OUT0282","name":"Reddy Kirana Store","pinCode":"500008","area":"Tolichowki","channelType":"grocery","beatId":2,"lat":17.391014,"lng":78.410045},{"outletId":"OUT0283","name":"Shri Krishna Super Market","pinCode":"500074","area":"LB Nagar","channelType":"grocery","beatId":3,"lat":17.343159,"lng":78.54798},{"outletId":"OUT0284","name":"Shri Lakshmi Shop","pinCode":"500039","area":"Uppal","channelType":"general","beatId":4,"lat":17.39472,"lng":78.565664},{"outletId":"OUT0285","name":"Maa Srinivas General Store","pinCode":"500007","area":"Habsiguda","channelType":"grocery","beatId":5,"lat":17.404378,"lng":78.535718},{"outletId":"OUT0286","name":"Ramesh Mart","pinCode":"500017","area":"Tarnaka","channelType":"general","beatId":6,"lat":17.428348,"lng":78.535328},{"outletId":"OUT0287","name":"Suresh Traders","pinCode":"500047","area":"Malkajgiri","channelType":"grocery","beatId":7,"lat":17.454234,"lng":78.524321},{"outletId":"OUT0288","name":"Venkat Kirana Store","pinCode":"500014","area":"Kompally","channelType":"paan-plus","beatId":8,"lat":17.526939,"lng":78.488843},{"outletId":"OUT0289","name":"Om Ravi Kirana & General","pinCode":"500049","area":"Miyapur","channelType":"grocery","beatId":9,"lat":17.503658,"lng":78.353604},{"outletId":"OUT0290","name":"New Ganesh Provision Store","pinCode":"500050","area":"Chandanagar","channelType":"grocery","beatId":10,"lat":17.483772,"lng":78.323035},{"outletId":"OUT0291","name":"New Sai Mart","pinCode":"500019","area":"Lingampally","channelType":"grocery","beatId":11,"lat":17.489386,"lng":78.325754},{"outletId":"OUT0292","name":"Balaji Kiryana","pinCode":"500035","area":"Kothapet","channelType":"grocery","beatId":12,"lat":17.360001,"lng":78.547719},{"outletId":"OUT0293","name":"Mahesh Shop","pinCode":"500076","area":"Nacharam","channelType":"paan-plus","beatId":13,"lat":17.419014,"lng":78.554392},{"outletId":"OUT0294","name":"Maa Patel General Store","pinCode":"500010","area":"Alwal","channelType":"general","beatId":14,"lat":17.497849,"lng":78.513511},{"outletId":"OUT0295","name":"Kumar Provision Store","pinCode":"500011","area":"Bowenpally","channelType":"general","beatId":15,"lat":17.466654,"lng":78.479939},{"outletId":"OUT0296","name":"Prasad General Store","pinCode":"500015","area":"Trimulgherry","channelType":"grocery","beatId":16,"lat":17.484198,"lng":78.497447},{"outletId":"OUT0297","name":"Murthy Shop","pinCode":"500001","area":"Nampally","channelType":"grocery","beatId":17,"lat":17.395278,"lng":78.478992},{"outletId":"OUT0298","name":"Om Rao Super Market","pinCode":"500001","area":"Abids","channelType":"grocery","beatId":18,"lat":17.396953,"lng":78.468092},{"outletId":"OUT0299","name":"Naidu Kiryana","pinCode":"500002","area":"Charminar","channelType":"grocery","beatId":19,"lat":17.365487,"lng":78.468594},{"outletId":"OUT0300","name":"Maa Swamy Super Market","pinCode":"500036","area":"Malakpet","channelType":"grocery","beatId":20,"lat":17.370487,"lng":78.497758},{"outletId":"OUT0301","name":"Raju Kiryana","pinCode":"500016","area":"Ameerpet","channelType":"cosmetic","beatId":21,"lat":17.443754,"lng":78.440459},{"outletId":"OUT0302","name":"Mohan Provision Store","pinCode":"500072","area":"Kukatpally","channelType":"cosmetic","beatId":22,"lat":17.485385,"lng":78.406779},{"outletId":"OUT0303","name":"Sri Anil Grocery","pinCode":"500060","area":"Dilsukhnagar","channelType":"general","beatId":23,"lat":17.361889,"lng":78.52126},{"outletId":"OUT0304","name":"Sri Vijay Grocery","pinCode":"500016","area":"Begumpet","channelType":"general","beatId":24,"lat":17.445827,"lng":78.471123},{"outletId":"OUT0305","name":"Satish Kirana Store","pinCode":"500003","area":"Secunderabad","channelType":"grocery","beatId":25,"lat":17.445552,"lng":78.494084},{"outletId":"OUT0306","name":"Maa Kiran Super Market","pinCode":"500081","area":"Madhapur","channelType":"general","beatId":26,"lat":17.455553,"lng":78.389049},{"outletId":"OUT0307","name":"Maa Sekhar Grocery","pinCode":"500032","area":"Gachibowli","channelType":"grocery","beatId":27,"lat":17.447809,"lng":78.345002},{"outletId":"OUT0308","name":"Deepak General Store","pinCode":"500033","area":"Jubilee Hills","channelType":"grocery","beatId":28,"lat":17.427803,"lng":78.413203},{"outletId":"OUT0309","name":"Ashok Kiryana","pinCode":"500034","area":"Banjara Hills","channelType":"general","beatId":29,"lat":17.408355,"lng":78.437014},{"outletId":"OUT0310","name":"Rajesh Shop","pinCode":"500029","area":"Himayath Nagar","channelType":"cosmetic","beatId":30,"lat":17.401617,"lng":78.491814},{"outletId":"OUT0311","name":"Sri Srikanth Kirana Store","pinCode":"500028","area":"Mehdipatnam","channelType":"general","beatId":31,"lat":17.396266,"lng":78.439291},{"outletId":"OUT0312","name":"New Madhu Grocery","pinCode":"500008","area":"Tolichowki","channelType":"grocery","beatId":32,"lat":17.404699,"lng":78.411674},{"outletId":"OUT0313","name":"Om Govind Provision Store","pinCode":"500074","area":"LB Nagar","channelType":"general","beatId":33,"lat":17.342256,"lng":78.545515},{"outletId":"OUT0314","name":"Shiva Traders","pinCode":"500039","area":"Uppal","channelType":"general","beatId":34,"lat":17.408969,"lng":78.564901},{"outletId":"OUT0315","name":"Bhanu Traders","pinCode":"500007","area":"Habsiguda","channelType":"paan-plus","beatId":35,"lat":17.413298,"lng":78.530221},{"outletId":"OUT0316","name":"Sri Chandra Kirana & General","pinCode":"500017","area":"Tarnaka","channelType":"grocery","beatId":36,"lat":17.428894,"lng":78.537616},{"outletId":"OUT0317","name":"Maa Srinath Grocery","pinCode":"500047","area":"Malkajgiri","channelType":"paan-plus","beatId":37,"lat":17.455751,"lng":78.51445},{"outletId":"OUT0318","name":"Padma General Store","pinCode":"500014","area":"Kompally","channelType":"grocery","beatId":38,"lat":17.538044,"lng":78.479601},{"outletId":"OUT0319","name":"Sridevi Mart","pinCode":"500049","area":"Miyapur","channelType":"general","beatId":39,"lat":17.493884,"lng":78.360148},{"outletId":"OUT0320","name":"Jyothi Provision Store","pinCode":"500050","area":"Chandanagar","channelType":"grocery","beatId":40,"lat":17.494283,"lng":78.327712},{"outletId":"OUT0321","name":"Sri Sharma Super Market","pinCode":"500019","area":"Lingampally","channelType":"paan-plus","beatId":1,"lat":17.487522,"lng":78.313993},{"outletId":"OUT0322","name":"Sri Reddy Grocery","pinCode":"500035","area":"Kothapet","channelType":"grocery","beatId":2,"lat":17.369076,"lng":78.553063},{"outletId":"OUT0323","name":"Krishna General Store","pinCode":"500076","area":"Nacharam","channelType":"general","beatId":3,"lat":17.417804,"lng":78.56498},{"outletId":"OUT0324","name":"Om Lakshmi Shop","pinCode":"500010","area":"Alwal","channelType":"grocery","beatId":4,"lat":17.488337,"lng":78.518117},{"outletId":"OUT0325","name":"Maa Srinivas Traders","pinCode":"500011","area":"Bowenpally","channelType":"general","beatId":5,"lat":17.473356,"lng":78.483787},{"outletId":"OUT0326","name":"Om Ramesh Provision Store","pinCode":"500015","area":"Trimulgherry","channelType":"grocery","beatId":6,"lat":17.485946,"lng":78.497269},{"outletId":"OUT0327","name":"Om Suresh Grocery","pinCode":"500001","area":"Nampally","channelType":"grocery","beatId":7,"lat":17.395687,"lng":78.477711},{"outletId":"OUT0328","name":"Venkat Grocery","pinCode":"500001","area":"Abids","channelType":"grocery","beatId":8,"lat":17.395083,"lng":78.481605},{"outletId":"OUT0329","name":"Ravi Provision Store","pinCode":"500002","area":"Charminar","channelType":"grocery","beatId":9,"lat":17.368153,"lng":78.481389},{"outletId":"OUT0330","name":"Ganesh Super Market","pinCode":"500036","area":"Malakpet","channelType":"grocery","beatId":10,"lat":17.374538,"lng":78.500581},{"outletId":"OUT0331","name":"New Sai Kirana Store","pinCode":"500016","area":"Ameerpet","channelType":"grocery","beatId":11,"lat":17.44375,"lng":78.441382},{"outletId":"OUT0332","name":"Maa Balaji Kirana & General","pinCode":"500072","area":"Kukatpally","channelType":"paan-plus","beatId":12,"lat":17.483607,"lng":78.394328},{"outletId":"OUT0333","name":"Maa Mahesh Provision Store","pinCode":"500060","area":"Dilsukhnagar","channelType":"general","beatId":13,"lat":17.372935,"lng":78.524188},{"outletId":"OUT0334","name":"Patel Shop","pinCode":"500016","area":"Begumpet","channelType":"grocery","beatId":14,"lat":17.448144,"lng":78.468396},{"outletId":"OUT0335","name":"Om Kumar General Store","pinCode":"500003","area":"Secunderabad","channelType":"grocery","beatId":15,"lat":17.445993,"lng":78.505484},{"outletId":"OUT0336","name":"Prasad Super Market","pinCode":"500081","area":"Madhapur","channelType":"grocery","beatId":16,"lat":17.44396,"lng":78.386735},{"outletId":"OUT0337","name":"Om Murthy General Store","pinCode":"500032","area":"Gachibowli","channelType":"paan-plus","beatId":17,"lat":17.434532,"lng":78.352367},{"outletId":"OUT0338","name":"Om Rao Grocery","pinCode":"500033","area":"Jubilee Hills","channelType":"paan-plus","beatId":18,"lat":17.437801,"lng":78.411137},{"outletId":"OUT0339","name":"Shri Naidu Provision Store","pinCode":"500034","area":"Banjara Hills","channelType":"general","beatId":19,"lat":17.416495,"lng":78.434317},{"outletId":"OUT0340","name":"Om Swamy Grocery","pinCode":"500029","area":"Himayath Nagar","channelType":"cosmetic","beatId":20,"lat":17.38736,"lng":78.482998},{"outletId":"OUT0341","name":"Shri Raju Super Market","pinCode":"500028","area":"Mehdipatnam","channelType":"grocery","beatId":21,"lat":17.388866,"lng":78.438507},{"outletId":"OUT0342","name":"New Mohan Kirana & General","pinCode":"500008","area":"Tolichowki","channelType":"grocery","beatId":22,"lat":17.404168,"lng":78.41957},{"outletId":"OUT0343","name":"Shri Anil General Store","pinCode":"500074","area":"LB Nagar","channelType":"cosmetic","beatId":23,"lat":17.34794,"lng":78.552401},{"outletId":"OUT0344","name":"Maa Vijay General Store","pinCode":"500039","area":"Uppal","channelType":"general","beatId":24,"lat":17.403775,"lng":78.558218},{"outletId":"OUT0345","name":"Satish Kiryana","pinCode":"500007","area":"Habsiguda","channelType":"grocery","beatId":25,"lat":17.411611,"lng":78.535342},{"outletId":"OUT0346","name":"Kiran Kirana Store","pinCode":"500017","area":"Tarnaka","channelType":"general","beatId":26,"lat":17.429751,"lng":78.536908},{"outletId":"OUT0347","name":"Sekhar Super Market","pinCode":"500047","area":"Malkajgiri","channelType":"grocery","beatId":27,"lat":17.459832,"lng":78.520627},{"outletId":"OUT0348","name":"Deepak Traders","pinCode":"500014","area":"Kompally","channelType":"general","beatId":28,"lat":17.537245,"lng":78.487615},{"outletId":"OUT0349","name":"Ashok Shop","pinCode":"500049","area":"Miyapur","channelType":"paan-plus","beatId":29,"lat":17.489706,"lng":78.350168},{"outletId":"OUT0350","name":"Rajesh Shop","pinCode":"500050","area":"Chandanagar","channelType":"general","beatId":30,"lat":17.486169,"lng":78.337801},{"outletId":"OUT0351","name":"Maa Srikanth Provision Store","pinCode":"500019","area":"Lingampally","channelType":"general","beatId":31,"lat":17.49037,"lng":78.324065},{"outletId":"OUT0352","name":"Maa Madhu Super Market","pinCode":"500035","area":"Kothapet","channelType":"general","beatId":32,"lat":17.364467,"lng":78.542243},{"outletId":"OUT0353","name":"Govind Mart","pinCode":"500076","area":"Nacharam","channelType":"paan-plus","beatId":33,"lat":17.419387,"lng":78.561971},{"outletId":"OUT0354","name":"Shiva General Store","pinCode":"500010","area":"Alwal","channelType":"paan-plus","beatId":34,"lat":17.488984,"lng":78.522601},{"outletId":"OUT0355","name":"New Bhanu Traders","pinCode":"500011","area":"Bowenpally","channelType":"grocery","beatId":35,"lat":17.46997,"lng":78.484981},{"outletId":"OUT0356","name":"Sri Chandra Grocery","pinCode":"500015","area":"Trimulgherry","channelType":"general","beatId":36,"lat":17.482652,"lng":78.505993},{"outletId":"OUT0357","name":"Srinath Traders","pinCode":"500001","area":"Nampally","channelType":"grocery","beatId":37,"lat":17.380199,"lng":78.468154},{"outletId":"OUT0358","name":"Om Padma Shop","pinCode":"500001","area":"Abids","channelType":"grocery","beatId":38,"lat":17.399243,"lng":78.478886},{"outletId":"OUT0359","name":"Sridevi Grocery","pinCode":"500002","area":"Charminar","channelType":"general","beatId":39,"lat":17.353626,"lng":78.476919},{"outletId":"OUT0360","name":"Jyothi Provision Store","pinCode":"500036","area":"Malakpet","channelType":"paan-plus","beatId":40,"lat":17.368243,"lng":78.497617},{"outletId":"OUT0361","name":"Sharma Mart","pinCode":"500016","area":"Ameerpet","channelType":"general","beatId":1,"lat":17.443521,"lng":78.443782},{"outletId":"OUT0362","name":"Sri Reddy General Store","pinCode":"500072","area":"Kukatpally","channelType":"general","beatId":2,"lat":17.477151,"lng":78.404771},{"outletId":"OUT0363","name":"Om Krishna Super Market","pinCode":"500060","area":"Dilsukhnagar","channelType":"grocery","beatId":3,"lat":17.367516,"lng":78.530684},{"outletId":"OUT0364","name":"Lakshmi Grocery","pinCode":"500016","area":"Begumpet","channelType":"general","beatId":4,"lat":17.44444,"lng":78.473517},{"outletId":"OUT0365","name":"New Srinivas General Store","pinCode":"500003","area":"Secunderabad","channelType":"general","beatId":5,"lat":17.444182,"lng":78.494594},{"outletId":"OUT0366","name":"Ramesh General Store","pinCode":"500081","area":"Madhapur","channelType":"grocery","beatId":6,"lat":17.454324,"lng":78.391989},{"outletId":"OUT0367","name":"Suresh General Store","pinCode":"500032","area":"Gachibowli","channelType":"paan-plus","beatId":7,"lat":17.438515,"lng":78.346755},{"outletId":"OUT0368","name":"Om Venkat Kiryana","pinCode":"500033","area":"Jubilee Hills","channelType":"grocery","beatId":8,"lat":17.436108,"lng":78.402148},{"outletId":"OUT0369","name":"Ravi General Store","pinCode":"500034","area":"Banjara Hills","channelType":"grocery","beatId":9,"lat":17.418109,"lng":78.439534},{"outletId":"OUT0370","name":"Ganesh Grocery","pinCode":"500029","area":"Himayath Nagar","channelType":"grocery","beatId":10,"lat":17.391015,"lng":78.492155},{"outletId":"OUT0371","name":"Maa Sai Kiryana","pinCode":"500028","area":"Mehdipatnam","channelType":"paan-plus","beatId":11,"lat":17.388197,"lng":78.445987},{"outletId":"OUT0372","name":"Shri Balaji Shop","pinCode":"500008","area":"Tolichowki","channelType":"general","beatId":12,"lat":17.40239,"lng":78.415957},{"outletId":"OUT0373","name":"Mahesh Mart","pinCode":"500074","area":"LB Nagar","channelType":"general","beatId":13,"lat":17.353226,"lng":78.545426},{"outletId":"OUT0374","name":"Patel Kiryana","pinCode":"500039","area":"Uppal","channelType":"paan-plus","beatId":14,"lat":17.40157,"lng":78.566157},{"outletId":"OUT0375","name":"New Kumar Kirana & General","pinCode":"500007","area":"Habsiguda","channelType":"grocery","beatId":15,"lat":17.407084,"lng":78.531302},{"outletId":"OUT0376","name":"Prasad Traders","pinCode":"500017","area":"Tarnaka","channelType":"paan-plus","beatId":16,"lat":17.426045,"lng":78.538267},{"outletId":"OUT0377","name":"Murthy Mart","pinCode":"500047","area":"Malkajgiri","channelType":"grocery","beatId":17,"lat":17.45062,"lng":78.520375},{"outletId":"OUT0378","name":"Shri Rao General Store","pinCode":"500014","area":"Kompally","channelType":"paan-plus","beatId":18,"lat":17.531458,"lng":78.477273},{"outletId":"OUT0379","name":"Naidu Mart","pinCode":"500049","area":"Miyapur","channelType":"general","beatId":19,"lat":17.49281,"lng":78.351779},{"outletId":"OUT0380","name":"Shri Swamy Kiryana","pinCode":"500050","area":"Chandanagar","channelType":"paan-plus","beatId":20,"lat":17.493952,"lng":78.338381},{"outletId":"OUT0381","name":"Raju General Store","pinCode":"500019","area":"Lingampally","channelType":"grocery","beatId":21,"lat":17.492687,"lng":78.31228},{"outletId":"OUT0382","name":"New Mohan Shop","pinCode":"500035","area":"Kothapet","channelType":"general","beatId":22,"lat":17.362992,"lng":78.541549},{"outletId":"OUT0383","name":"Anil General Store","pinCode":"500076","area":"Nacharam","channelType":"grocery","beatId":23,"lat":17.404489,"lng":78.5521},{"outletId":"OUT0384","name":"Maa Vijay Grocery","pinCode":"500010","area":"Alwal","channelType":"grocery","beatId":24,"lat":17.491915,"lng":78.525576},{"outletId":"OUT0385","name":"Satish Kirana Store","pinCode":"500011","area":"Bowenpally","channelType":"grocery","beatId":25,"lat":17.466644,"lng":78.473388},{"outletId":"OUT0386","name":"Maa Kiran Super Market","pinCode":"500015","area":"Trimulgherry","channelType":"paan-plus","beatId":26,"lat":17.475696,"lng":78.506298},{"outletId":"OUT0387","name":"Shri Sekhar Traders","pinCode":"500001","area":"Nampally","channelType":"general","beatId":27,"lat":17.389653,"lng":78.470117},{"outletId":"OUT0388","name":"Deepak Super Market","pinCode":"500001","area":"Abids","channelType":"paan-plus","beatId":28,"lat":17.387445,"lng":78.480693},{"outletId":"OUT0389","name":"Ashok General Store","pinCode":"500002","area":"Charminar","channelType":"grocery","beatId":29,"lat":17.358268,"lng":78.471748},{"outletId":"OUT0390","name":"Rajesh Mart","pinCode":"500036","area":"Malakpet","channelType":"grocery","beatId":30,"lat":17.379662,"lng":78.496259},{"outletId":"OUT0391","name":"Srikanth Kirana & General","pinCode":"500016","area":"Ameerpet","channelType":"grocery","beatId":31,"lat":17.430171,"lng":78.451495},{"outletId":"OUT0392","name":"New Madhu Provision Store","pinCode":"500072","area":"Kukatpally","channelType":"general","beatId":32,"lat":17.485793,"lng":78.397112},{"outletId":"OUT0393","name":"Govind Kiryana","pinCode":"500060","area":"Dilsukhnagar","channelType":"general","beatId":33,"lat":17.372551,"lng":78.524096},{"outletId":"OUT0394","name":"Om Shiva Kiryana","pinCode":"500016","area":"Begumpet","channelType":"paan-plus","beatId":34,"lat":17.451765,"lng":78.474548},{"outletId":"OUT0395","name":"Shri Bhanu Mart","pinCode":"500003","area":"Secunderabad","channelType":"general","beatId":35,"lat":17.436693,"lng":78.500279},{"outletId":"OUT0396","name":"Sri Chandra Shop","pinCode":"500081","area":"Madhapur","channelType":"cosmetic","beatId":36,"lat":17.45513,"lng":78.393282},{"outletId":"OUT0397","name":"Srinath General Store","pinCode":"500032","area":"Gachibowli","channelType":"grocery","beatId":37,"lat":17.439436,"lng":78.345949},{"outletId":"OUT0398","name":"Padma Kiryana","pinCode":"500033","area":"Jubilee Hills","channelType":"general","beatId":38,"lat":17.438132,"lng":78.410069},{"outletId":"OUT0399","name":"Sridevi Kirana & General","pinCode":"500034","area":"Banjara Hills","channelType":"cosmetic","beatId":39,"lat":17.410215,"lng":78.437483},{"outletId":"OUT0400","name":"Om Jyothi Kiryana","pinCode":"500029","area":"Himayath Nagar","channelType":"paan-plus","beatId":40,"lat":17.401757,"lng":78.480534},{"outletId":"OUT0401","name":"Sharma Traders","pinCode":"500028","area":"Mehdipatnam","channelType":"paan-plus","beatId":1,"lat":17.399671,"lng":78.446133},{"outletId":"OUT0402","name":"Maa Reddy Kirana Store","pinCode":"500008","area":"Tolichowki","channelType":"general","beatId":2,"lat":17.401029,"lng":78.418179},{"outletId":"OUT0403","name":"New Krishna Super Market","pinCode":"500074","area":"LB Nagar","channelType":"general","beatId":3,"lat":17.348909,"lng":78.551677},{"outletId":"OUT0404","name":"Lakshmi Shop","pinCode":"500039","area":"Uppal","channelType":"grocery","beatId":4,"lat":17.408499,"lng":78.566052},{"outletId":"OUT0405","name":"Shri Srinivas Kiryana","pinCode":"500007","area":"Habsiguda","channelType":"paan-plus","beatId":5,"lat":17.410209,"lng":78.536374},{"outletId":"OUT0406","name":"Ramesh Mart","pinCode":"500017","area":"Tarnaka","channelType":"grocery","beatId":6,"lat":17.427265,"lng":78.539064},{"outletId":"OUT0407","name":"Suresh Shop","pinCode":"500047","area":"Malkajgiri","channelType":"general","beatId":7,"lat":17.456009,"lng":78.520475},{"outletId":"OUT0408","name":"Om Venkat General Store","pinCode":"500014","area":"Kompally","channelType":"paan-plus","beatId":8,"lat":17.535242,"lng":78.480487},{"outletId":"OUT0409","name":"Maa Ravi Kiryana","pinCode":"500049","area":"Miyapur","channelType":"grocery","beatId":9,"lat":17.499497,"lng":78.350447},{"outletId":"OUT0410","name":"Om Ganesh Kirana Store","pinCode":"500050","area":"Chandanagar","channelType":"general","beatId":10,"lat":17.481744,"lng":78.330277},{"outletId":"OUT0411","name":"New Sai Super Market","pinCode":"500019","area":"Lingampally","channelType":"paan-plus","beatId":11,"lat":17.485233,"lng":78.313302},{"outletId":"OUT0412","name":"Sri Balaji Kirana & General","pinCode":"500035","area":"Kothapet","channelType":"cosmetic","beatId":12,"lat":17.361702,"lng":78.541912},{"outletId":"OUT0413","name":"Sri Mahesh Mart","pinCode":"500076","area":"Nacharam","channelType":"grocery","beatId":13,"lat":17.416839,"lng":78.559114},{"outletId":"OUT0414","name":"Patel Shop","pinCode":"500010","area":"Alwal","channelType":"general","beatId":14,"lat":17.48896,"lng":78.522403},{"outletId":"OUT0415","name":"Om Kumar Kirana Store","pinCode":"500011","area":"Bowenpally","channelType":"grocery","beatId":15,"lat":17.468751,"lng":78.478337},{"outletId":"OUT0416","name":"Prasad Kiryana","pinCode":"500015","area":"Trimulgherry","channelType":"general","beatId":16,"lat":17.474593,"lng":78.500273},{"outletId":"OUT0417","name":"Murthy Grocery","pinCode":"500001","area":"Nampally","channelType":"paan-plus","beatId":17,"lat":17.388725,"lng":78.466787},{"outletId":"OUT0418","name":"Sri Rao Super Market","pinCode":"500001","area":"Abids","channelType":"general","beatId":18,"lat":17.388977,"lng":78.482635},{"outletId":"OUT0419","name":"Naidu Super Market","pinCode":"500002","area":"Charminar","channelType":"paan-plus","beatId":19,"lat":17.361071,"lng":78.478588},{"outletId":"OUT0420","name":"Swamy Grocery","pinCode":"500036","area":"Malakpet","channelType":"paan-plus","beatId":20,"lat":17.374158,"lng":78.503622},{"outletId":"OUT0421","name":"Raju Kirana Store","pinCode":"500016","area":"Ameerpet","channelType":"cosmetic","beatId":21,"lat":17.443783,"lng":78.453555},{"outletId":"OUT0422","name":"Sri Mohan Kiryana","pinCode":"500072","area":"Kukatpally","channelType":"grocery","beatId":22,"lat":17.480663,"lng":78.395959},{"outletId":"OUT0423","name":"Om Anil Kirana Store","pinCode":"500060","area":"Dilsukhnagar","channelType":"general","beatId":23,"lat":17.360713,"lng":78.524367},{"outletId":"OUT0424","name":"Vijay Mart","pinCode":"500016","area":"Begumpet","channelType":"cosmetic","beatId":24,"lat":17.449198,"lng":78.476836},{"outletId":"OUT0425","name":"Satish Kirana Store","pinCode":"500003","area":"Secunderabad","channelType":"cosmetic","beatId":25,"lat":17.447038,"lng":78.499492},{"outletId":"OUT0426","name":"Kiran Mart","pinCode":"500081","area":"Madhapur","channelType":"paan-plus","beatId":26,"lat":17.454021,"lng":78.391108},{"outletId":"OUT0427","name":"New Sekhar Kirana Store","pinCode":"500032","area":"Gachibowli","channelType":"grocery","beatId":27,"lat":17.447812,"lng":78.346126},{"outletId":"OUT0428","name":"Deepak Kiryana","pinCode":"500033","area":"Jubilee Hills","channelType":"grocery","beatId":28,"lat":17.431956,"lng":78.40519},{"outletId":"OUT0429","name":"Shri Ashok Provision Store","pinCode":"500034","area":"Banjara Hills","channelType":"general","beatId":29,"lat":17.419173,"lng":78.437494},{"outletId":"OUT0430","name":"Rajesh Kiryana","pinCode":"500029","area":"Himayath Nagar","channelType":"grocery","beatId":30,"lat":17.393054,"lng":78.493236},{"outletId":"OUT0431","name":"Srikanth Kiryana","pinCode":"500028","area":"Mehdipatnam","channelType":"general","beatId":31,"lat":17.388928,"lng":78.448458},{"outletId":"OUT0432","name":"Madhu Kirana & General","pinCode":"500008","area":"Tolichowki","channelType":"grocery","beatId":32,"lat":17.401651,"lng":78.409917},{"outletId":"OUT0433","name":"New Govind Shop","pinCode":"500074","area":"LB Nagar","channelType":"grocery","beatId":33,"lat":17.343189,"lng":78.557653},{"outletId":"OUT0434","name":"Sri Shiva Kirana & General","pinCode":"500039","area":"Uppal","channelType":"general","beatId":34,"lat":17.401969,"lng":78.564974},{"outletId":"OUT0435","name":"Bhanu Kiryana","pinCode":"500007","area":"Habsiguda","channelType":"grocery","beatId":35,"lat":17.408612,"lng":78.528371},{"outletId":"OUT0436","name":"Om Chandra Traders","pinCode":"500017","area":"Tarnaka","channelType":"grocery","beatId":36,"lat":17.432441,"lng":78.536737},{"outletId":"OUT0437","name":"Srinath Kirana Store","pinCode":"500047","area":"Malkajgiri","channelType":"cosmetic","beatId":37,"lat":17.453036,"lng":78.518232},{"outletId":"OUT0438","name":"Sri Padma Kirana & General","pinCode":"500014","area":"Kompally","channelType":"grocery","beatId":38,"lat":17.538983,"lng":78.481355},{"outletId":"OUT0439","name":"Shri Sridevi Grocery","pinCode":"500049","area":"Miyapur","channelType":"grocery","beatId":39,"lat":17.490365,"lng":78.349933},{"outletId":"OUT0440","name":"Maa Jyothi Kiryana","pinCode":"500050","area":"Chandanagar","channelType":"grocery","beatId":40,"lat":17.491629,"lng":78.329532},{"outletId":"OUT0441","name":"Sharma Kirana Store","pinCode":"500019","area":"Lingampally","channelType":"general","beatId":1,"lat":17.487917,"lng":78.320173},{"outletId":"OUT0442","name":"Om Reddy Kirana Store","pinCode":"500035","area":"Kothapet","channelType":"grocery","beatId":2,"lat":17.362757,"lng":78.544306},{"outletId":"OUT0443","name":"Sri Krishna Kiryana","pinCode":"500076","area":"Nacharam","channelType":"grocery","beatId":3,"lat":17.41047,"lng":78.55616},{"outletId":"OUT0444","name":"Lakshmi Super Market","pinCode":"500010","area":"Alwal","channelType":"paan-plus","beatId":4,"lat":17.499015,"lng":78.511515},{"outletId":"OUT0445","name":"Om Srinivas Kirana Store","pinCode":"500011","area":"Bowenpally","channelType":"general","beatId":5,"lat":17.473255,"lng":78.484089},{"outletId":"OUT0446","name":"Ramesh Mart","pinCode":"500015","area":"Trimulgherry","channelType":"grocery","beatId":6,"lat":17.485102,"lng":78.498969},{"outletId":"OUT0447","name":"Suresh Kirana Store","pinCode":"500001","area":"Nampally","channelType":"paan-plus","beatId":7,"lat":17.382146,"lng":78.477336},{"outletId":"OUT0448","name":"New Venkat Traders","pinCode":"500001","area":"Abids","channelType":"general","beatId":8,"lat":17.39204,"lng":78.473057},{"outletId":"OUT0449","name":"New Ravi Shop","pinCode":"500002","area":"Charminar","channelType":"cosmetic","beatId":9,"lat":17.364407,"lng":78.47295},{"outletId":"OUT0450","name":"Shri Ganesh Shop","pinCode":"500036","area":"Malakpet","channelType":"paan-plus","beatId":10,"lat":17.376594,"lng":78.496094},{"outletId":"OUT0451","name":"Maa Sai Kiryana","pinCode":"500016","area":"Ameerpet","channelType":"paan-plus","beatId":11,"lat":17.432719,"lng":78.450968},{"outletId":"OUT0452","name":"Sri Balaji Kirana Store","pinCode":"500072","area":"Kukatpally","channelType":"grocery","beatId":12,"lat":17.488409,"lng":78.396377},{"outletId":"OUT0453","name":"Mahesh Provision Store","pinCode":"500060","area":"Dilsukhnagar","channelType":"cosmetic","beatId":13,"lat":17.366292,"lng":78.517258},{"outletId":"OUT0454","name":"New Patel Grocery","pinCode":"500016","area":"Begumpet","channelType":"general","beatId":14,"lat":17.436146,"lng":78.464756},{"outletId":"OUT0455","name":"Kumar Grocery","pinCode":"500003","area":"Secunderabad","channelType":"paan-plus","beatId":15,"lat":17.444,"lng":78.50079},{"outletId":"OUT0456","name":"Prasad Kiryana","pinCode":"500081","area":"Madhapur","channelType":"paan-plus","beatId":16,"lat":17.456064,"lng":78.388114},{"outletId":"OUT0457","name":"Shri Murthy Super Market","pinCode":"500032","area":"Gachibowli","channelType":"paan-plus","beatId":17,"lat":17.440493,"lng":78.344945},{"outletId":"OUT0458","name":"New Rao General Store","pinCode":"500033","area":"Jubilee Hills","channelType":"grocery","beatId":18,"lat":17.429074,"lng":78.411095},{"outletId":"OUT0459","name":"New Naidu Provision Store","pinCode":"500034","area":"Banjara Hills","channelType":"grocery","beatId":19,"lat":17.408584,"lng":78.431811},{"outletId":"OUT0460","name":"Sri Swamy General Store","pinCode":"500029","area":"Himayath Nagar","channelType":"general","beatId":20,"lat":17.392159,"lng":78.490949},{"outletId":"OUT0461","name":"Raju Kirana & General","pinCode":"500028","area":"Mehdipatnam","channelType":"grocery","beatId":21,"lat":17.400078,"lng":78.437691},{"outletId":"OUT0462","name":"Maa Mohan Kirana & General","pinCode":"500008","area":"Tolichowki","channelType":"grocery","beatId":22,"lat":17.396584,"lng":78.417132},{"outletId":"OUT0463","name":"Anil Shop","pinCode":"500074","area":"LB Nagar","channelType":"general","beatId":23,"lat":17.355852,"lng":78.549629},{"outletId":"OUT0464","name":"Sri Vijay General Store","pinCode":"500039","area":"Uppal","channelType":"grocery","beatId":24,"lat":17.407471,"lng":78.554836},{"outletId":"OUT0465","name":"Shri Satish Traders","pinCode":"500007","area":"Habsiguda","channelType":"general","beatId":25,"lat":17.406891,"lng":78.543324},{"outletId":"OUT0466","name":"Kiran Provision Store","pinCode":"500017","area":"Tarnaka","channelType":"general","beatId":26,"lat":17.427499,"lng":78.538235},{"outletId":"OUT0467","name":"Sri Sekhar General Store","pinCode":"500047","area":"Malkajgiri","channelType":"general","beatId":27,"lat":17.452439,"lng":78.525785},{"outletId":"OUT0468","name":"Deepak Kiryana","pinCode":"500014","area":"Kompally","channelType":"general","beatId":28,"lat":17.530496,"lng":78.485268},{"outletId":"OUT0469","name":"Ashok Super Market","pinCode":"500049","area":"Miyapur","channelType":"paan-plus","beatId":29,"lat":17.493444,"lng":78.352898},{"outletId":"OUT0470","name":"Maa Rajesh Super Market","pinCode":"500050","area":"Chandanagar","channelType":"grocery","beatId":30,"lat":17.493717,"lng":78.327105},{"outletId":"OUT0471","name":"New Srikanth Kirana Store","pinCode":"500019","area":"Lingampally","channelType":"grocery","beatId":31,"lat":17.486516,"lng":78.310417},{"outletId":"OUT0472","name":"Madhu Super Market","pinCode":"500035","area":"Kothapet","channelType":"general","beatId":32,"lat":17.355542,"lng":78.550434},{"outletId":"OUT0473","name":"Govind Shop","pinCode":"500076","area":"Nacharam","channelType":"general","beatId":33,"lat":17.408362,"lng":78.563767},{"outletId":"OUT0474","name":"New Shiva Grocery","pinCode":"500010","area":"Alwal","channelType":"paan-plus","beatId":34,"lat":17.501717,"lng":78.522841},{"outletId":"OUT0475","name":"Bhanu Mart","pinCode":"500011","area":"Bowenpally","channelType":"grocery","beatId":35,"lat":17.466108,"lng":78.472994},{"outletId":"OUT0476","name":"Maa Chandra Kirana Store","pinCode":"500015","area":"Trimulgherry","channelType":"grocery","beatId":36,"lat":17.48034,"lng":78.502342},{"outletId":"OUT0477","name":"Srinath Grocery","pinCode":"500001","area":"Nampally","channelType":"cosmetic","beatId":37,"lat":17.381558,"lng":78.475022},{"outletId":"OUT0478","name":"Padma Kirana & General","pinCode":"500001","area":"Abids","channelType":"general","beatId":38,"lat":17.38606,"lng":78.47627},{"outletId":"OUT0479","name":"Maa Sridevi Kirana Store","pinCode":"500002","area":"Charminar","channelType":"general","beatId":39,"lat":17.356101,"lng":78.468383},{"outletId":"OUT0480","name":"Sri Jyothi Kirana & General","pinCode":"500036","area":"Malakpet","channelType":"paan-plus","beatId":40,"lat":17.375666,"lng":78.493388},{"outletId":"OUT0481","name":"Shri Sharma Kirana Store","pinCode":"500016","area":"Ameerpet","channelType":"grocery","beatId":1,"lat":17.435009,"lng":78.455242},{"outletId":"OUT0482","name":"Reddy Kirana & General","pinCode":"500072","area":"Kukatpally","channelType":"grocery","beatId":2,"lat":17.492653,"lng":78.406446},{"outletId":"OUT0483","name":"Sri Krishna Traders","pinCode":"500060","area":"Dilsukhnagar","channelType":"paan-plus","beatId":3,"lat":17.366433,"lng":78.522683},{"outletId":"OUT0484","name":"Shri Lakshmi Mart","pinCode":"500016","area":"Begumpet","channelType":"general","beatId":4,"lat":17.445088,"lng":78.479105},{"outletId":"OUT0485","name":"Srinivas Kiryana","pinCode":"500003","area":"Secunderabad","channelType":"grocery","beatId":5,"lat":17.434578,"lng":78.498946},{"outletId":"OUT0486","name":"Maa Ramesh Traders","pinCode":"500081","area":"Madhapur","channelType":"general","beatId":6,"lat":17.448363,"lng":78.397221},{"outletId":"OUT0487","name":"Suresh Traders","pinCode":"500032","area":"Gachibowli","channelType":"paan-plus","beatId":7,"lat":17.442512,"lng":78.348238},{"outletId":"OUT0488","name":"Om Venkat Provision Store","pinCode":"500033","area":"Jubilee Hills","channelType":"grocery","beatId":8,"lat":17.437828,"lng":78.408617},{"outletId":"OUT0489","name":"Ravi Shop","pinCode":"500034","area":"Banjara Hills","channelType":"cosmetic","beatId":9,"lat":17.407474,"lng":78.43743},{"outletId":"OUT0490","name":"Ganesh General Store","pinCode":"500029","area":"Himayath Nagar","channelType":"paan-plus","beatId":10,"lat":17.388255,"lng":78.487617},{"outletId":"OUT0491","name":"Sai Kiryana","pinCode":"500028","area":"Mehdipatnam","channelType":"general","beatId":11,"lat":17.387207,"lng":78.446091},{"outletId":"OUT0492","name":"Shri Balaji Kirana Store","pinCode":"500008","area":"Tolichowki","channelType":"grocery","beatId":12,"lat":17.393988,"lng":78.419158},{"outletId":"OUT0493","name":"Mahesh Traders","pinCode":"500074","area":"LB Nagar","channelType":"general","beatId":13,"lat":17.341712,"lng":78.552231},{"outletId":"OUT0494","name":"Sri Patel Super Market","pinCode":"500039","area":"Uppal","channelType":"paan-plus","beatId":14,"lat":17.406843,"lng":78.555098},{"outletId":"OUT0495","name":"Sri Kumar Grocery","pinCode":"500007","area":"Habsiguda","channelType":"grocery","beatId":15,"lat":17.409833,"lng":78.53458},{"outletId":"OUT0496","name":"Maa Prasad Shop","pinCode":"500017","area":"Tarnaka","channelType":"paan-plus","beatId":16,"lat":17.426176,"lng":78.539626},{"outletId":"OUT0497","name":"New Murthy Mart","pinCode":"500047","area":"Malkajgiri","channelType":"paan-plus","beatId":17,"lat":17.446168,"lng":78.519363},{"outletId":"OUT0498","name":"Rao Provision Store","pinCode":"500014","area":"Kompally","channelType":"grocery","beatId":18,"lat":17.533584,"lng":78.477574},{"outletId":"OUT0499","name":"Naidu Provision Store","pinCode":"500049","area":"Miyapur","channelType":"paan-plus","beatId":19,"lat":17.496616,"lng":78.352618},{"outletId":"OUT0500","name":"Sri Swamy Kirana Store","pinCode":"500050","area":"Chandanagar","channelType":"grocery","beatId":20,"lat":17.492785,"lng":78.330088}]